City,Lat,Lng,Max Temp,Cloudiness,Wind Speed,Country,Humidity,Date
Vaini,-21.2,-175.2,77.16,40,10.36,TO,78,1658705090
Mackay,-21.15,149.2,68.68,24,7.85,AU,86,1658705091
Sabang,5.8933,95.3214,80.6,100,6.24,ID,77,1658705070
Cape Town,-33.9258,18.4232,57.38,0,11.99,ZA,77,1658704802
Mar del Plata,-38.0023,-57.5575,52.09,100,9.22,AR,98,1658705091
Bambous Virieux,-20.3428,57.7575,61.05,40,6.91,MU,88,1658705091
Olafsvik,64.8945,-23.7142,52.77,98,5.79,IS,80,1658705092
Pevek,69.7008,170.3133,35.28,42,3.11,RU,90,1658705092
Rikitea,-23.1203,-134.9692,75.52,73,15.73,PF,80,1658705092
Punta Arenas,-53.15,-70.9167,37.51,40,14.97,CL,75,1658704939
Yellowknife,62.456,-114.3525,61.32,75,4.61,CA,94,1658705093
Esperance,-33.8667,121.9,47.88,47,12.39,AU,71,1658705093
Castro,-24.7911,-50.0119,60.04,99,2.8,BR,72,1658705093
Seymchan,62.8833,152.4333,62.74,69,3.06,RU,56,1658705094
Longyearbyen,78.2186,15.6401,46.24,75,9.22,SJ,87,1658705069
Bluff,-46.6,168.3333,38.8,72,9.22,NZ,80,1658705094
Lompoc,34.6391,-120.4579,85.01,0,11.99,US,69,1658705094
Tiksi,71.6872,128.8694,48.34,2,2.26,RU,74,1658705095
Atuona,-9.8,-139.0333,76.66,52,16.28,PF,66,1658705095
Sargatskoye,55.6101,73.4972,55.2,34,6.26,RU,89,1658705095
Arraial do Cabo,-22.9661,-42.0278,71.69,19,21.88,BR,86,1658704866
Marzuq,14.4,46.4667,79.86,59,4.85,YE,56,1658705095
Hong Kong,22.2855,114.1577,88.97,7,4.0,HK,82,1658705027
Carnarvon,-24.8667,113.6333,55.89,0,15.75,AU,53,1658705096
Avarua,-21.2078,-159.775,71.65,75,9.22,CK,68,1658705096
Araguaína,-7.1911,-48.2072,80.04,67,3.62,BR,33,1658705096
Albany,42.6001,-73.9662,89.78,66,9.57,US,63,1658705050
Verkhnevilyuysk,63.4453,120.3167,68.56,29,8.37,RU,67,1658705097
Upernavik,72.7868,-56.1549,41.61,100,6.73,GL,95,1658705097
Aasiaat,68.7098,-52.8699,37.26,99,6.67,GL,97,1658705097
Quatre Cocos,-20.2078,57.7625,60.91,6,7.74,MU,77,1658705098
Kaeo,-35.1,173.7833,62.33,100,19.48,NZ,97,1658705098
Jamundí,3.2607,-76.535,76.96,82,3.71,CO,89,1658705098
Butaritari,3.0707,172.7902,82.4,2,18.86,KI,73,1658705099
Khatanga,71.9667,102.5,62.42,98,9.66,RU,80,1658705002
Ushuaia,-54.8,-68.3,35.26,75,8.05,AR,69,1658705099
Deputatsky,69.3,139.9,61.7,56,4.29,RU,55,1658705099
Hilo,19.7297,-155.09,86.29,40,11.5,US,73,1658705037
Jamestown,42.097,-79.2353,76.71,75,21.85,US,88,1658705001
Ponta do Sol,32.6667,-17.1,84.13,0,2.17,PT,39,1658705100
Tuktoyaktuk,69.4541,-133.0374,48.2,75,10.36,CA,81,1658705100
Babu,24.4167,111.5167,80.8,0,1.48,CN,81,1658705101
Fortuna,40.5982,-124.1573,60.98,18,8.14,US,73,1658705101
Chicama,-7.8447,-79.1469,59.54,23,7.34,PE,75,1658705095
Ludvika,60.1496,15.1878,60.78,62,5.23,SE,87,1658705101
Saskylakh,71.9167,114.0833,67.71,55,10.67,RU,63,1658705102
New Norfolk,-42.7826,147.0587,46.92,81,2.04,AU,90,1658705102
Saint-Philippe,-21.3585,55.7679,64.22,44,9.22,RE,80,1658705050
Avera,33.194,-82.5271,87.39,42,5.66,US,69,1658705102
Port Blair,11.6667,92.75,80.76,81,2.75,IN,82,1658705103
Hithadhoo,-0.6,73.0833,81.82,100,6.67,MV,73,1658705015
Hokitika,-42.7167,170.9667,49.95,100,6.55,NZ,56,1658705103
Whakatane,-37.9585,176.9854,54.77,100,15.52,NZ,74,1658705103
Karratha,-20.7377,116.8463,62.71,0,18.61,AU,42,1658705104
Barrow,71.2906,-156.7887,44.62,100,9.22,US,81,1658705104
Puerto Ayora,-0.7393,-90.3518,70.56,79,7.0,EC,90,1658705104
Bollnäs,61.3482,16.3946,59.61,89,4.47,SE,77,1658705105
Faanui,-16.4833,-151.75,77.72,3,12.12,PF,78,1658705105
Changzhou,31.7833,119.9667,81.27,2,7.52,CN,80,1658705105
Saint-Pierre,-21.3393,55.4781,65.91,0,4.61,RE,68,1658705106
Saint-Augustin,51.226,-58.6502,69.96,90,7.0,CA,70,1658705106
Bredasdorp,-34.5322,20.0403,47.98,0,6.15,ZA,88,1658705106
Nanortalik,60.1432,-45.2371,48.25,92,5.41,GL,81,1658705106
Temerloh,3.4483,102.4176,73.11,99,0.27,MY,98,1658705107
Narsaq,60.9167,-46.05,55.62,85,5.14,GL,65,1658705107
Northam,51.0333,-4.2167,64.38,100,19.26,GB,95,1658705107
Evensk,61.95,159.2333,60.53,76,4.12,RU,53,1658705108
Mataura,-46.1927,168.8643,38.48,21,2.68,NZ,82,1658705108
Broken Hill,-31.95,141.4333,57.72,68,8.59,AU,49,1658705108
Oktyabr'skoye,43.0645,44.7417,60.94,96,4.47,RU,93,1658705109
Ajdabiya,30.7554,20.2263,80.65,0,11.03,LY,39,1658705109
Hobart,-42.8794,147.3294,47.26,40,4.61,AU,96,1658704918
Polazna,58.2946,56.4055,67.39,84,4.68,RU,90,1658705109
Qaanaaq,77.484,-69.3632,40.23,100,0.27,GL,92,1658705110
Yamoussoukro,6.8206,-5.2767,73.29,0,4.61,CI,88,1658705110
Hot Springs,34.5037,-93.0552,99.0,75,11.5,US,36,1658705024
Sovetskiy,61.3614,63.5842,56.03,89,3.67,RU,93,1658705110
Port Alfred,-33.5906,26.891,58.93,94,6.55,ZA,60,1658705008
Māngrol,21.1167,70.1167,80.78,93,18.61,IN,84,1658705111
Bodden Town,19.2833,-81.25,87.01,20,10.36,KY,69,1658705111
Lüderitz,-26.6481,15.1594,66.65,1,6.87,NA,48,1658705111
San Patricio,28.017,-97.5169,93.92,0,18.28,US,49,1658705112
Paysandu,-32.3214,-58.0756,71.6,30,7.34,UY,92,1658705112
Khovd,48.0056,91.6419,59.47,0,7.43,MN,36,1658705112
Cherskiy,68.75,161.3,59.77,94,9.42,RU,41,1658705032
Hermanus,-34.4187,19.2345,51.8,0,10.74,ZA,86,1658705113
Abadan,38.0507,58.2056,85.73,0,16.11,TM,42,1658705113
Mazyr,52.0495,29.2456,58.37,1,8.86,BY,97,1658705113
Bengkulu,-3.8004,102.2655,75.09,100,4.61,ID,90,1658705114
Mīnāb,27.1467,57.0801,88.12,93,2.3,IR,74,1658705114
Clyde River,70.4692,-68.5914,41.23,100,16.11,CA,100,1658705114
Rumford,44.5537,-70.5509,86.83,99,3.65,US,85,1658705115
Bhīmunipatnam,17.8833,83.4333,76.51,100,3.94,IN,82,1658705115
Hualmay,-11.0964,-77.6139,63.7,9,12.21,PE,79,1658705045
Nizwá,22.9333,57.5333,86.99,99,2.66,OM,53,1658705115
Seaford,50.7714,0.1027,67.37,100,12.57,GB,87,1658705116
Gabi,7.6215,126.092,77.65,83,1.54,PH,90,1658705116
Līsakovsk,52.5369,62.4936,67.69,23,4.76,KZ,52,1658705116
Busselton,-33.65,115.3333,57.45,80,14.97,AU,68,1658705117
Sovetskaya Gavan',48.9723,140.2878,69.22,16,3.2,RU,79,1658705117
Bandarbeyla,9.4942,50.8122,77.31,99,26.6,SO,76,1658705117
Kostino,58.9097,53.2691,61.92,2,4.07,RU,94,1658705118
Sfântu Gheorghe,45.8667,25.7833,68.94,77,1.9,RO,89,1658705043
George Town,5.4112,100.3354,78.73,20,3.44,MY,95,1658705021
Bilibino,68.0546,166.4372,55.31,11,9.73,RU,51,1658705118
Along,28.1667,94.7667,71.98,34,0.58,IN,98,1658705118
Kismayo,-0.3582,42.5454,74.88,82,18.39,SO,81,1658705119
Fairbanks,64.8378,-147.7164,72.09,0,5.75,US,38,1658705119
Sørland,67.667,12.6934,51.66,100,18.75,NO,82,1658705119
Torbay,47.6666,-52.7314,75.97,40,12.66,CA,69,1658705120
Beşikdüzü,41.052,39.2284,69.69,1,6.78,TR,67,1658705120
Kavieng,-2.5744,150.7967,84.4,37,12.97,PG,72,1658705120
Ostrovnoy,68.0531,39.5131,50.07,97,12.26,RU,91,1658705120
Hamilton,39.1834,-84.5333,88.65,0,13.8,US,65,1658704994
Deming,32.2687,-107.7586,91.29,20,12.66,US,25,1658705121
Beringovskiy,63.05,179.3167,44.73,100,11.86,RU,78,1658705121
Verkhoyansk,67.5447,133.385,67.6,78,1.74,RU,66,1658705121
Maracaju,-21.6144,-55.1683,77.13,68,3.6,BR,32,1658705122
Saint-Paul-lès-Dax,43.7272,-1.0516,73.92,100,7.0,FR,81,1658705122
Hervey Bay,-25.2986,152.8535,63.48,1,9.31,AU,73,1658705122
Cruzeiro do Sul,-29.5128,-51.9853,72.52,100,1.36,BR,89,1658705123
Murchison,-41.8,172.3333,44.92,100,2.8,NZ,84,1658705123
Pisco,-13.7,-76.2167,62.65,0,11.5,PE,82,1658705088
Port Elizabeth,-33.918,25.5701,54.1,0,5.75,ZA,93,1658705123
Souillac,-20.5167,57.5167,61.18,40,6.91,MU,88,1658705031
Vao,-22.6667,167.4833,72.05,94,12.06,NC,74,1658705124
Guerrero Negro,27.9769,-114.0611,77.86,35,15.03,MX,58,1658705063
Ixtapa,20.7,-105.2,80.22,100,5.75,MX,89,1658705124
Klaksvík,62.2266,-6.589,50.92,100,23.55,FO,95,1658705125
Tonaya,19.7833,-103.9667,87.55,28,4.76,MX,44,1658705125
Xuchang,34.0167,113.8167,76.41,3,7.11,CN,77,1658705125
Hātod,22.8,75.7333,72.91,100,12.48,IN,94,1658705125
Naze,28.3667,129.4833,83.32,5,1.95,JP,79,1658705126
Mahébourg,-20.4081,57.7,61.09,40,6.91,MU,88,1658705126
Gizo Government Station,-8.103,156.8419,83.3,45,6.6,SB,73,1658705126
Rincon,32.296,-81.2354,83.86,75,11.5,US,78,1658705127
Salalah,17.0151,54.0924,77.09,75,5.75,OM,88,1658705127
Lebu,-37.6167,-73.65,51.84,100,9.55,CL,95,1658705127
Tromsø,69.6496,18.957,49.37,100,10.36,NO,81,1658705128
Soyo,-6.1349,12.3689,69.94,33,5.84,AO,92,1658705128
Klamath Falls,42.2249,-121.7817,94.96,0,9.22,US,13,1658705128
Atar,20.5169,-13.0499,96.8,27,4.61,MR,33,1658705129
Port-Gentil,-0.7193,8.7815,73.36,40,8.05,GA,83,1658705129
Roald,62.5833,6.1333,65.32,20,8.05,NO,82,1658705129
Porbandar,21.6422,69.6093,80.83,96,20.62,IN,85,1658705129
Pangnirtung,66.1451,-65.7125,53.02,46,3.06,CA,68,1658705130
Nikolskoye,59.7035,30.7861,64.29,78,3.91,RU,98,1658705130
Tautira,-17.7333,-149.15,78.13,4,13.73,PF,79,1658705130
Banjar,-8.19,114.9675,68.76,43,5.79,ID,83,1658705131
Azuaga,38.2667,-5.6833,84.96,20,6.73,ES,22,1658705131
Koutsouras,35.0339,25.9469,80.04,0,15.37,GR,53,1658705131
Mossamedes,-15.1961,12.1522,63.45,62,5.84,AO,87,1658705131
Oriximiná,-1.7656,-55.8661,81.73,59,2.62,BR,62,1658705132
Coyhaique,-45.5752,-72.0662,33.75,100,3.44,CL,80,1658705122
Gusau,12.1628,6.6614,78.21,70,8.16,NG,75,1658705132
Vestmannaeyjar,63.4427,-20.2734,52.2,97,13.91,IS,87,1658705132
Kahului,20.8947,-156.47,89.62,20,24.16,US,40,1658705133
Roncesvalles,4.0108,-75.6049,56.32,96,0.83,CO,91,1658705133
Bethel,41.3712,-73.414,92.25,0,10.36,US,60,1658704900
Kapaa,22.0752,-159.319,85.98,20,13.8,US,71,1658705133
San Rafael del Sur,11.8485,-86.4384,86.97,68,11.23,NI,66,1658705134
Swellendam,-34.0226,20.4417,48.07,0,4.94,ZA,77,1658705134
Provideniya,64.3833,-173.3,46.51,100,4.47,RU,76,1658705134
Chokurdakh,70.6333,147.9167,66.04,90,10.65,RU,39,1658705135
Hofn,64.2539,-15.2082,51.44,35,4.59,IS,87,1658705135
Songjianghe,42.1859,127.479,64.53,54,5.37,CN,95,1658705135
Aktash,50.3,87.7333,38.01,48,1.63,RU,90,1658705135
Faya,18.3851,42.4509,64.92,82,7.4,SA,62,1658705136
Carpinteria,34.3989,-119.5185,89.69,15,9.01,US,55,1658704911
Cockburn Town,21.4612,-71.1419,80.56,40,12.66,TC,74,1658704885
Mehamn,71.0357,27.8492,49.91,71,6.93,NO,88,1658705136
Gravdal,68.1214,13.5031,52.52,75,13.94,NO,80,1658705136
Bonavista,48.6499,-53.1147,64.11,86,10.71,CA,92,1658705137
Airai,-8.9266,125.4092,57.13,56,2.46,TL,55,1658705057
Iguaí,-14.7564,-40.0892,62.94,69,2.8,BR,87,1658705137
Santa Rosa,14.3122,121.1114,87.1,90,4.45,PH,80,1658705121
Voyvozh,62.892,54.9635,48.47,83,3.78,RU,92,1658705137
Zhuanghe,39.7008,122.9911,77.2,1,4.9,CN,84,1658705138
East London,-33.0153,27.9116,59.13,74,7.67,ZA,62,1658705138
Tucuruí,-3.7661,-49.6725,79.99,44,3.15,BR,52,1658705138
Namatanai,-3.6667,152.4333,82.9,18,5.84,PG,74,1658705139
Traralgon,-38.1833,146.5333,51.67,82,2.24,AU,70,1658704933
Raymond,43.9015,-70.4703,90.52,89,8.72,US,51,1658705139
Lethem,3.3803,-59.7968,76.14,100,3.49,GY,89,1658705139
Gillette,44.2911,-105.5022,77.92,0,9.22,US,73,1658705011
Sitka,57.0531,-135.33,57.09,100,14.97,US,94,1658705140
Los Llanos de Aridane,28.6585,-17.9182,73.15,0,8.05,ES,73,1658705140
Santiago del Estero,-27.7951,-64.2615,74.93,3,6.6,AR,57,1658704986
Razdol'noye,43.55,131.9167,66.61,100,4.52,RU,99,1658705140
Hohhot,40.8106,111.6522,66.49,0,4.47,CN,63,1658705008
Wanning,18.8003,110.3967,79.18,30,3.62,CN,83,1658705141
Kalangala,-0.3089,32.225,73.08,59,3.71,UG,64,1658705141
Alice Springs,-23.7,133.8833,56.75,0,5.75,AU,62,1658705141
Isangel,-19.55,169.2667,84.31,75,2.3,VU,79,1658705142
El Cobre,20.0489,-75.9469,83.64,40,6.91,CU,74,1658705142
Mantenópolis,-18.8625,-41.1228,65.43,4,7.76,BR,80,1658705142
Samagaltay,50.6022,95.0047,56.25,64,6.6,RU,65,1658705142
Necochea,-38.5473,-58.7368,47.66,100,7.63,AR,91,1658705143
Jackson,42.4165,-122.8345,102.02,0,9.22,US,20,1658705143
Thompson,55.7435,-97.8558,71.76,75,6.91,CA,37,1658704884
Örnsköldsvik,63.2909,18.7153,52.75,40,1.14,SE,100,1658705144
Vanimo,-2.6741,141.3028,81.73,26,5.06,PG,78,1658705144
Yulara,-25.2406,130.9889,51.26,0,14.27,AU,67,1658705145
Rawson,-43.3002,-65.1023,42.93,100,10.51,AR,72,1658704850
Tasiilaq,65.6145,-37.6368,44.76,28,4.85,GL,81,1658705145
Albina,5.5,-54.05,74.23,99,3.11,SR,97,1658705146
Jonesboro,35.8423,-90.7043,96.57,0,15.01,US,41,1658705146
Flin Flon,54.7682,-101.865,71.44,40,6.91,CA,43,1658705146
Shaowu,27.3409,117.4831,81.66,2,1.39,CN,75,1658705147
Ust'-Kulom,61.6864,53.6902,55.98,86,4.16,RU,99,1658705147
Talara,-4.5772,-81.2719,64.04,22,17.49,PE,92,1658705147
Te Anau,-45.4167,167.7167,41.92,97,0.83,NZ,83,1658705148
Esso,55.9333,158.7,59.38,100,5.57,RU,74,1658705148
Channel-Port aux Basques,47.5702,-59.1367,66.43,99,2.55,CA,87,1658705149
Ko Samui,9.5357,99.9357,83.59,19,7.02,TH,72,1658705149
Fairhope,30.523,-87.9033,84.7,40,3.44,US,88,1658705150
Menongue,-14.6585,17.691,56.28,1,4.45,AO,43,1658704871
Iqaluit,63.7506,-68.5145,46.13,40,11.5,CA,93,1658705150
Andrews,32.3187,-102.5457,97.41,40,13.8,US,24,1658704910
Leningradskiy,69.3833,178.4167,34.93,100,3.56,RU,97,1658705023
Udachny,66.4167,112.4,65.95,100,10.83,RU,83,1658705151
Vardø,70.3705,31.1107,46.38,100,1.14,NO,87,1658705151
Sachīn,21.0833,72.8833,79.14,100,11.25,IN,87,1658705151
Maseru,-29.3167,27.4833,36.73,0,2.51,LS,59,1658705151
Cayenne,4.9333,-52.3333,83.08,0,4.61,GF,1,1658704886
Nueva Concepción,14.2,-91.3,81.54,96,5.26,GT,85,1658705152
Katobu,-4.9408,122.5276,73.13,51,2.73,ID,83,1658705152
Saint-François,46.4154,3.9054,69.24,0,3.44,FR,68,1658705152
Chui,-33.6971,-53.4616,57.29,57,5.19,UY,99,1658705153
Elizabeth City,36.2946,-76.2511,88.05,0,12.66,US,75,1658705103
Maniitsoq,65.4167,-52.9,45.81,69,13.15,GL,83,1658705153
Ancud,-41.8697,-73.8203,47.23,94,6.53,CL,94,1658705153
Cabo San Lucas,22.8909,-109.9124,92.61,20,5.75,MX,67,1658704972
Churāchāndpur,24.3333,93.6667,66.67,100,0.87,IN,99,1658705154
Saint George,37.1041,-113.5841,88.39,0,19.57,US,40,1658705154
Asău,46.4333,26.4,70.95,98,3.22,RO,97,1658705154
Wexford,52.3342,-6.4575,60.22,23,14.92,IE,91,1658705155
Kilindoni,-7.9139,39.6668,75.16,2,14.85,TZ,78,1658705155
Srinagar,34.0833,74.8167,68.5,98,0.43,IN,95,1658705155
Vágur,61.4732,-6.8119,49.86,100,25.57,FO,95,1658705156
Lagoa,39.05,-27.9833,73.33,0,10.33,PT,90,1658705156
Rongcheng,30.634,117.8517,82.33,2,2.44,CN,80,1658705156
Taoudenni,22.6783,-3.9836,94.75,52,12.48,ML,28,1658705157
Resistencia,-27.4606,-58.9839,79.11,0,8.05,AR,66,1658705102
Tonstad,58.6626,6.7169,59.65,100,4.07,NO,99,1658705157
Motygino,58.1831,94.7592,56.3,72,2.13,RU,95,1658705157
Verkhotur'ye,58.8627,60.8054,61.36,55,5.84,RU,89,1658705158
Blumenau,-26.9194,-49.0661,69.08,98,1.5,BR,93,1658705158
Christchurch,-43.5333,172.6333,44.42,100,3.44,NZ,93,1658704904
Korla,41.7597,86.1469,85.82,98,17.45,CN,25,1658705103
Seoul,37.5683,126.9778,79.99,20,5.75,KR,80,1658705126
Davila,18.4726,120.5763,82.38,9,3.13,PH,72,1658705158
Preobrazheniye,42.9019,133.9064,68.02,58,2.46,RU,84,1658705159
Shelbyville,35.4834,-86.4603,90.03,0,8.05,US,58,1658704747
Barie,44.5725,-0.1104,78.01,2,10.56,FR,61,1658705159
Zamora,-4.0692,-78.9567,72.64,65,1.12,EC,98,1658705159
Ilulissat,69.2167,-51.1,39.18,100,2.86,GL,92,1658705075
Kiama,-34.6833,150.8667,56.25,7,3.71,AU,90,1658705160
Dakar,14.6937,-17.4441,77.88,100,3.22,SN,78,1658705031
Rio Grande,-32.035,-52.0986,60.91,99,3.47,BR,99,1658705160
Hasaki,35.7333,140.8333,86.4,80,13.44,JP,83,1658705160
Pano Aqil,27.8569,69.1116,100.29,100,12.62,PK,77,1658705161
Dikson,73.5069,80.5464,48.0,100,15.57,RU,96,1658705161
Havøysund,70.9963,24.6622,50.23,61,3.31,NO,85,1658705161
Paamiut,61.994,-49.6678,45.68,15,0.45,GL,83,1658705162
Vila Velha,-20.3297,-40.2925,71.94,20,3.44,BR,82,1658705162
Kasane,-17.8167,25.15,59.92,24,3.69,BW,45,1658705162
Constitución,-35.3333,-72.4167,53.31,100,7.87,CL,94,1658705163
Tuatapere,-46.1333,167.6833,44.4,94,3.4,NZ,86,1658705163
Javānrūd,34.7961,46.5172,70.02,0,3.96,IR,21,1658705163
Motril,36.7507,-3.5179,92.26,17,2.37,ES,41,1658705163
Yar-Sale,66.8333,70.8333,48.34,65,11.32,RU,88,1658705134
Sangar,63.9242,127.4739,67.03,20,4.09,RU,66,1658705164
Edmond,35.6528,-97.4781,104.76,22,7.0,US,32,1658704885
Priozyornoye,45.2698,36.3303,72.46,55,8.97,UA,63,1658705164
Katsuura,35.1333,140.3,80.82,93,10.67,JP,84,1658705164
Skovorodino,53.9833,123.9167,73.02,2,0.69,RU,63,1658705165
Norman Wells,65.282,-126.8329,73.44,75,12.66,CA,35,1658705165
Palmer,42.1584,-72.3287,92.01,40,13.8,US,49,1658705165
Toamasina,-18.1667,49.3833,66.2,75,4.61,MG,94,1658705166
Samarai,-10.6167,150.6667,79.75,83,14.29,PG,81,1658705166
Curuçá,-0.7289,-47.8481,76.46,78,5.48,BR,87,1658705166
Aklavik,68.2191,-135.0107,60.51,12,4.47,CA,52,1658705167
Meulaboh,4.1363,96.1285,74.89,100,2.06,ID,92,1658705167
Humboldt,40.6665,-123.9178,95.67,2,6.76,US,36,1658705167
Berlevåg,70.8578,29.0864,49.95,100,8.05,NO,87,1658705167
Neiafu,-18.65,-173.9833,77.68,75,10.36,TO,73,1658705014
Iralaya,15.0,-83.2333,80.98,88,7.2,HN,82,1658705168
Sergeevka,53.88,67.4158,61.07,14,5.88,KZ,75,1658705168
Tiarei,-17.5333,-149.3333,84.22,9,14.79,PF,80,1658704992
Lorengau,-2.0226,147.2712,84.31,74,9.24,PG,72,1658705168
Sarany,58.5,58.8833,60.46,29,4.12,RU,82,1658705169
Coquimbo,-29.9533,-71.3436,53.33,75,8.05,CL,82,1658705169
Rodolfo Sánchez Taboada,31.7167,-116.5667,70.11,71,5.01,MX,76,1658705119
Ribeira Grande,38.5167,-28.7,74.71,13,5.86,PT,89,1658705052
São Filipe,14.8961,-24.4956,78.33,95,8.19,CV,84,1658705169
Half Moon Bay,37.4636,-122.4286,86.92,75,19.57,US,65,1658705170
Bergen,60.392,5.328,63.16,75,17.27,NO,87,1658705170
Arrondissement d'Ajaccio,42.0,8.9167,73.45,0,5.75,FR,78,1658704970
Panguna,-6.3164,155.4848,80.28,23,2.57,PG,60,1658705170
São José da Coroa Grande,-8.8978,-35.1478,74.12,100,10.87,BR,75,1658705171
Mount Gambier,-37.8333,140.7667,53.51,100,11.5,AU,94,1658705171
Sterlibashevo,53.4376,55.2578,63.41,61,3.38,RU,77,1658705171
Muros,42.7762,-9.0603,64.69,72,2.59,ES,89,1658705172
Tabou,4.423,-7.3528,75.13,100,5.86,CI,77,1658705172
Severo-Kuril'sk,50.6789,156.125,51.76,100,14.5,RU,98,1658705172
Lac-Mégantic,45.5834,-70.8823,72.66,100,7.38,CA,77,1658705172
Royan,45.6285,-1.0281,67.78,43,11.39,FR,84,1658705173
Port Hardy,50.6996,-127.4199,62.78,40,5.75,CA,82,1658705173
Koygorodok,60.445,50.9968,60.89,68,2.71,RU,89,1658705173
Tommot,58.9564,126.2925,77.27,38,0.98,RU,72,1658705174
Fort Nelson,58.8053,-122.7002,72.99,75,3.44,CA,35,1658705174
San Quintín,30.4833,-115.95,72.57,95,11.86,MX,71,1658705120
Nikolskiy,60.9151,34.0645,60.04,100,1.74,RU,97,1658705174
Mount Isa,-20.7333,139.5,64.17,0,4.61,AU,55,1658705175
Tateyama,34.9833,139.8667,80.13,99,9.6,JP,83,1658705175
Mayo,38.8876,-76.5119,94.17,0,12.66,US,78,1658705175
Saint Paul Harbor,57.79,-152.4072,54.91,100,9.22,US,94,1658705176
Inhambane,-23.865,35.3833,67.87,69,15.73,MZ,82,1658705176
Río Cuarto,-33.1307,-64.3499,61.47,100,5.75,AR,100,1658705176
The Valley,18.217,-63.0578,82.54,20,9.22,AI,78,1658705176
Vila Franca do Campo,37.7167,-25.4333,77.2,76,4.16,PT,86,1658705177
Aranos,-24.1333,19.1167,55.18,54,12.64,NA,59,1658705177
Taganak,6.0833,118.3,77.14,100,11.48,PH,83,1658705177
Tessalit,20.1986,1.0114,88.95,55,8.3,ML,30,1658705178
Nelson Bay,-32.7167,152.15,56.1,5,5.99,AU,94,1658705178
Talnakh,69.4865,88.3972,60.21,33,23.98,RU,71,1658705000
Tsimmerbude,54.675,20.1347,60.96,100,6.98,RU,79,1658705178
Westport,41.1415,-73.3579,91.27,0,17.27,US,62,1658705086
Mustafābād,30.8922,73.4989,85.15,100,6.87,PK,68,1658705179
Moree,-29.4667,149.85,56.66,26,10.18,AU,68,1658705179
Havre-St-Pierre,50.2334,-63.5986,70.16,0,4.61,CA,68,1658705054
Touros,-5.1989,-35.4608,75.43,81,17.85,BR,76,1658705179
Ginda,30.6945,78.4932,66.7,100,1.12,IN,96,1658705180
Bontang,0.1333,117.5,75.78,52,6.6,ID,90,1658705180
Vinh Yen,21.31,105.5967,80.55,0,3.69,VN,90,1658705180
La Santisima Trinidad,-14.8333,-64.9,85.98,40,0.0,BO,58,1658705043
Teguise,29.0605,-13.564,75.42,0,9.22,ES,73,1658705181
Marsh Harbour,26.5412,-77.0636,82.92,97,14.29,BS,72,1658705181
Praia,14.9215,-23.5087,79.34,40,9.22,CV,89,1658705181
Maralal,1.0968,36.698,59.88,97,3.53,KE,71,1658705181
Laguna,38.421,-121.4238,105.76,0,9.22,US,24,1658705182
Moscow,55.7522,37.6156,70.23,45,2.55,RU,61,1658705042
Bardstown,37.8092,-85.4669,89.62,0,6.91,US,69,1658705182
Dingle,10.9995,122.6711,78.94,64,1.9,PH,87,1658705182
Dvinskoy Bereznik,62.8551,42.7072,54.21,96,3.78,RU,92,1658705183
Sarakhs,36.5449,61.1577,80.74,0,4.61,IR,41,1658705183
Sosnovo-Ozerskoye,52.5249,111.5418,57.78,100,6.89,RU,97,1658705183
Portland,45.5234,-122.6762,94.69,20,10.36,US,43,1658705092
Saint-Prosper,46.2117,-70.4811,77.29,100,2.13,CA,95,1658705184
Okhotsk,59.3833,143.3,54.68,100,12.12,RU,93,1658705184
Deloraine,-41.5333,146.6667,45.9,84,1.3,AU,15,1658705184
Luanda,-8.8368,13.2343,69.8,75,2.3,AO,88,1658704962
Henties Bay,-22.116,14.2845,54.99,14,2.93,NA,87,1658705185
Codrington,-38.2667,141.9667,53.62,100,16.91,AU,89,1658705006
Viedma,-40.8135,-62.9967,45.07,100,10.2,AR,78,1658705185
Balud,10.1476,123.6953,80.56,81,1.9,PH,78,1658705185
Keti Bandar,24.1447,67.4497,79.41,100,23.04,PK,95,1658705048
Polunochnoye,60.8697,60.4153,57.31,69,3.33,RU,96,1658705186
Amahai,-3.3333,128.9167,76.17,98,3.36,ID,89,1658705186
Gunnedah,-30.9833,150.25,52.63,53,4.68,AU,64,1658705186
Waipawa,-41.4122,175.5153,48.34,100,14.79,NZ,80,1658704988
El Chichicaste,14.0667,-86.3,79.39,99,4.12,HN,67,1658705187
Sanguéya,10.7,-14.3667,73.56,99,0.38,GN,96,1658705187
Safi,32.2994,-9.2372,75.85,89,13.35,MA,76,1658705187
Ilek,51.5271,53.3831,64.76,100,5.97,RU,82,1658705187
Coahuayana Viejo,18.7333,-103.6833,88.75,68,6.78,MX,60,1658705112
Latur,18.4,76.5833,70.65,100,10.38,IN,92,1658705188
Gamboula,4.1178,15.1393,68.49,100,3.13,CF,98,1658705188
Morehead,37.2711,-87.1764,93.85,0,4.61,US,57,1658705188
Margate,51.3813,1.3862,68.88,99,3.0,GB,70,1658705189
Bariloche,-41.1456,-71.3082,36.25,100,6.91,AR,93,1658705189
Sadovoye,47.7764,44.5089,67.68,84,9.71,RU,70,1658705189
Port Lincoln,-34.7333,135.8667,54.9,93,21.81,AU,64,1658705190
Ritchie,-29.038,24.6028,33.01,0,9.55,ZA,57,1658705190
Chickasha,35.0526,-97.9364,103.35,0,11.5,US,27,1658705190
Ekuvukeni,-28.4675,30.1551,41.85,0,0.67,ZA,73,1658705190
Makkah al Mukarramah,21.4267,39.8261,83.84,80,9.86,SA,67,1658704919
Mitchell,43.7094,-98.0298,82.38,0,10.36,US,42,1658704898
Luan,46.3592,6.9759,66.83,0,4.61,CH,66,1658705191
Auki,-8.7676,160.7034,85.26,9,3.69,SB,60,1658705191
Vanavara,60.34,102.2797,60.44,34,2.42,RU,76,1658705191
Slave Lake,55.2834,-114.769,71.58,75,11.5,CA,60,1658705192
Tocopilla,-22.092,-70.1979,61.47,20,5.61,CL,72,1658705192
Stepnyak,52.8339,70.7803,59.47,2,4.72,KZ,76,1658705192
Emilio Carranza,19.9711,-96.6114,83.91,83,14.03,MX,68,1658705193
Cartagena,10.3997,-75.5144,80.22,75,0.0,CO,83,1658705193
Plettenberg Bay,-34.0527,23.3716,52.92,35,4.07,ZA,77,1658705193
Arang,21.2,81.9667,75.36,100,6.11,IN,92,1658705193
Mitsamiouli,-11.3847,43.2844,75.36,4,4.38,KM,68,1658705194
Santoña,43.4439,-3.4576,71.53,99,11.23,ES,84,1658705194
Flinders,-34.5833,150.8552,56.05,4,5.99,AU,92,1658705194
Golden,39.7555,-105.2211,71.04,75,11.5,US,89,1658705195
Atbasar,51.8,68.3333,64.67,35,3.58,KZ,60,1658705195
Avigliano,40.7329,15.72,65.66,0,3.78,IT,69,1658705195
Green River,41.5286,-109.4662,77.18,100,8.99,US,47,1658705195
Acarí,-15.4311,-74.6158,64.89,10,4.5,PE,73,1658704991
Aracaju,-10.9111,-37.0717,76.95,20,10.36,BR,65,1658705196
Ylivieska,64.0833,24.55,57.31,31,3.22,FI,83,1658705196
Kapuskasing,49.4169,-82.4331,60.89,100,10.36,CA,88,1658705196
Doha,25.2867,51.5333,91.38,0,8.05,QA,64,1658705031
West Wendover,40.7391,-114.0733,94.21,0,20.71,US,20,1658705197
Sur,22.5667,59.5289,87.53,92,6.2,OM,71,1658705197
Turukhansk,65.8167,87.9833,53.65,95,12.66,RU,80,1658705197
Comodoro Rivadavia,-45.8667,-67.5,28.26,0,4.61,AR,93,1658705079
Biltine,14.5333,20.9167,86.79,45,9.08,TD,47,1658705167
Kashgar,39.4547,75.9797,90.61,40,17.9,CN,12,1658705198
Husavik,66.0449,-17.3389,46.56,96,3.27,IS,87,1658705198
Adrar,20.5022,-10.0711,97.72,4,9.15,MR,6,1658705198
Acapulco de Juárez,16.8634,-99.8901,85.82,75,9.22,MX,70,1658705199
Harindānga,22.0383,88.3214,80.82,100,7.02,IN,86,1658705199
Tual,-5.6667,132.75,79.47,92,19.19,ID,85,1658705199
São Joaquim,-28.2939,-49.9317,54.55,70,2.26,BR,93,1658705200
Springbok,-29.6643,17.8865,50.22,0,15.1,ZA,25,1658705200
Sisimiut,66.9395,-53.6735,47.25,48,9.46,GL,78,1658705200
Spas-Demensk,54.4122,34.0226,61.61,100,3.69,RU,99,1658705201
Amuntai,-2.4177,115.2494,72.25,7,0.94,ID,90,1658705201
Newcastleton,55.1796,-2.8127,60.04,97,13.67,GB,96,1658705201
Tura,25.5198,90.2201,73.35,100,3.18,IN,98,1658705044
West Odessa,31.8424,-102.4988,98.4,20,14.97,US,26,1658705201
Kaitangata,-46.2817,169.8464,42.31,88,5.5,NZ,91,1658705146
Acajutla,13.5928,-89.8275,83.84,97,3.67,SV,74,1658705202
Takoradze,4.8845,-1.7554,73.27,37,7.58,GH,87,1658705202
Chulumani,-16.4096,-67.5263,63.9,33,1.28,BO,80,1658705202
Pimentel,-6.8367,-79.9342,62.89,75,16.11,PE,82,1658705203
Pedro II,-4.4247,-41.4586,79.48,100,3.71,BR,41,1658705203
Caarapó,-22.6342,-54.8222,72.25,95,7.63,BR,43,1658705203
Navalmoral de la Mata,39.8916,-5.5406,80.69,60,4.18,ES,20,1658705204
Raudeberg,61.9875,5.1352,59.95,99,14.14,NO,84,1658705204
Sinnamary,5.3833,-52.95,77.59,99,8.12,GF,88,1658705204
Lakes Entrance,-37.8811,147.981,48.16,90,3.42,AU,69,1658705204
Mildura,-34.2,142.15,54.07,100,6.35,AU,85,1658705205
Ryazan,54.6197,39.74,73.89,100,4.41,RU,55,1658705205
Nuuk,64.1835,-51.7216,47.88,100,5.75,GL,87,1658705205
Oga,46.4631,10.347,63.28,7,2.89,IT,92,1658705206
Marsá Maţrūḩ,31.3525,27.2453,77.2,0,10.36,EG,69,1658705206
Buala,-8.145,159.5921,84.72,15,8.32,SB,69,1658705206
Noyabrsk,63.1994,75.4507,47.35,7,10.87,RU,89,1658705206
Egvekinot,66.3167,-179.1667,42.44,96,4.99,RU,62,1658705207
Laas,46.6166,10.7002,70.68,19,2.28,IT,92,1658705207
Caravelas,-17.7125,-39.2481,70.0,90,5.5,BR,81,1658705087
Chauk,20.8833,94.8167,79.14,88,5.37,MM,80,1658705207
Carballo,43.213,-8.691,65.86,59,3.04,ES,95,1658705208
Rhyl,53.3196,-3.4886,63.84,96,12.73,GB,81,1658705208
Mwene-Ditu,-7.0,23.45,73.83,65,4.32,CD,37,1658705208
Arrondissement de Fontenay-le-Comte,46.5833,-1.0,67.64,59,8.19,FR,80,1658705209
Cocobeach,1.0002,9.5823,75.0,89,6.44,GA,78,1658705209
Merrill,45.1805,-89.6835,73.67,100,10.36,US,59,1658705209
Gaza,31.5,34.4667,74.88,0,4.0,PS,74,1658705209
Padang,-0.9492,100.3543,76.64,100,4.05,ID,90,1658705210
Mandeville,18.0417,-77.5071,75.33,100,1.34,JM,78,1658704910
Pierre,44.3683,-100.351,85.12,0,5.75,US,35,1658705210
Labé,11.3182,-12.2833,66.29,99,1.36,GN,96,1658705210
Say,13.1007,2.3689,86.56,24,8.32,NE,68,1658705211
Iskateley,67.6803,53.1512,49.12,100,10.92,RU,85,1658705211
Ketchikan,55.3422,-131.6461,61.27,100,12.66,US,88,1658705211
Coron,11.9986,120.2043,80.38,73,1.66,PH,83,1658705212
Kadoma,34.7333,135.5833,85.64,75,5.75,JP,63,1658705212
Iława,53.596,19.5685,58.78,96,1.59,PL,88,1658705212
Labuan,5.2767,115.2417,77.36,75,3.44,MY,94,1658705213
Neringa,55.3719,21.0647,64.35,100,12.57,LT,77,1658705213
Mastic Beach,40.7668,-72.8521,86.54,98,18.99,US,87,1658705213
Quang Ngai,15.1167,108.8,75.99,76,4.65,VN,86,1658705213
Kununurra,-15.7667,128.7333,55.38,16,0.0,AU,76,1658705214
Thongwa,16.7619,96.5278,78.96,58,0.98,MM,85,1658705214
Vostok,46.4856,135.8833,66.36,100,0.72,RU,85,1658705214
Salinas,36.6777,-121.6555,85.57,20,16.11,US,64,1658705215
Lloydminster,53.2835,-110.0016,79.02,75,14.97,CA,41,1658705215
Bilma,18.6853,12.9164,93.13,3,11.68,NE,14,1658705215
Southbridge,42.0751,-72.0334,90.21,69,4.0,US,61,1658705216
Markala,13.7021,-6.0659,77.25,100,8.95,ML,79,1658705216
Geraldton,-28.7667,114.6,43.21,4,13.8,AU,93,1658705216
Ikalamavony,-21.15,46.5833,57.22,17,4.25,MG,89,1658705216
Province of Mantua,45.1667,10.7833,83.44,9,3.0,IT,70,1658705217
Kisesa,-3.0833,34.15,67.44,40,6.15,TZ,47,1658705217
Singaraja,-8.112,115.0882,72.0,49,5.01,ID,75,1658705217
Honningsvåg,70.9821,25.9704,49.75,100,5.75,NO,81,1658705066
Hvide Sande,56.0045,8.1294,61.09,90,15.84,DK,86,1658705218
Nantucket,41.2835,-70.0995,80.71,75,14.97,US,93,1658705189
Peniche,39.3558,-9.3811,68.29,23,13.27,PT,86,1658705146
Lavrentiya,65.5833,-171.0,42.96,100,9.98,RU,87,1658705218
Edirne,41.6772,26.556,71.8,3,6.2,TR,48,1658705219
Nome,64.5011,-165.4064,53.17,75,8.05,US,76,1658705219
Havelock,34.8791,-76.9013,82.94,0,12.66,US,83,1658705117
Kruisfontein,-34.0033,24.7314,51.89,52,4.03,ZA,83,1658705219
Yuncheng,35.0231,110.9928,76.53,29,4.21,CN,73,1658705220
Manggar,-2.8833,108.2667,79.65,66,13.6,ID,84,1658705220
Srednekolymsk,67.45,153.6833,69.62,69,10.38,RU,34,1658705220
Dehlorān,32.6941,47.2679,91.15,0,5.32,IR,10,1658705221
Krasnaya Gorbatka,55.8703,41.7641,64.9,52,3.49,RU,79,1658705221
Zhezkazgan,47.8043,67.7144,72.14,28,11.25,KZ,30,1658705221
Saint-Joseph,-21.3667,55.6167,63.21,25,10.07,RE,79,1658705221
Bahía Solano,6.2262,-77.4044,79.16,98,6.06,CO,85,1658705222
College,64.8569,-147.8028,72.07,75,5.75,US,38,1658705222
La Ronge,55.1001,-105.2842,66.42,100,6.91,CA,72,1658705222
La Romana,18.4273,-68.9728,75.56,75,0.0,DO,100,1658705192
Oktyabr'skiy,54.4815,53.471,63.3,15,2.24,RU,84,1658705223
Sibolga,1.7427,98.7792,74.68,61,3.02,ID,90,1658705223
Usinsk,65.9939,57.5281,50.49,99,9.42,RU,68,1658705223
Manzhouli,49.6,117.4333,65.25,75,13.11,CN,82,1658705224
Ryōtsu-minato,38.0833,138.4333,78.91,62,1.74,JP,72,1658705224
Ust-Tsilma,65.441,52.1498,47.89,51,3.49,RU,81,1658705224
Svetlaya,46.5389,138.3297,66.67,13,3.33,RU,82,1658705224
Goālpāra,26.1667,90.6167,76.33,100,3.31,IN,95,1658705225
Yangi Marg`ilon,40.4272,71.7189,83.12,0,6.91,UZ,21,1658705225
Barrhead,55.7992,-4.3929,61.02,75,9.22,GB,90,1658705225
Khani,41.9563,42.9566,54.97,75,4.09,GE,93,1658705226
Inírida,3.8653,-67.9239,72.99,100,1.57,CO,94,1658705226
Sokoto,13.0609,5.239,82.9,58,10.2,NG,61,1658705226
Vieques,18.425,-65.8329,83.1,40,11.5,PR,78,1658705227
Dalvik,65.9702,-18.5286,48.13,95,2.19,IS,89,1658705227
Puerto Escondido,15.85,-97.0667,76.03,100,5.75,MX,73,1658705227
Atambua,-9.1061,124.8925,68.04,40,4.83,ID,69,1658705227
Lufilufi,-13.8745,-171.5986,82.18,97,20.87,WS,81,1658705228
Bolshoy Lug,52.0779,104.0919,55.58,100,0.83,RU,90,1658705228
Nabire,-3.3667,135.4833,78.67,97,2.48,ID,84,1658705105
Salisbury,51.0693,-1.7957,66.65,75,13.8,GB,85,1658705145
Mongu,-15.2484,23.1274,57.69,0,5.75,ZM,40,1658705228
Fort-Shevchenko,44.5086,50.263,73.94,0,9.8,KZ,71,1658705229
Trindade,-16.6494,-49.4889,78.55,1,5.12,BR,34,1658705229
Kiruna,67.8557,20.2251,47.32,100,0.0,SE,100,1658705229
Mezen',65.8522,44.24,46.69,99,4.59,RU,96,1658705230
Morón,-34.6534,-58.6198,59.02,100,9.24,AR,98,1658705181
Erenhot,43.6475,111.9767,77.95,86,2.98,CN,32,1658705230
Cairns,-16.9167,145.7667,74.07,100,9.22,AU,77,1658705230
Agirish,61.9247,63.0231,52.65,74,4.38,RU,88,1658705231
Dickinson,29.4608,-95.0513,95.02,20,12.66,US,64,1658705231
Kenai,60.5544,-151.2583,68.02,75,11.5,US,57,1658705231
Ridgecrest,35.6225,-117.6709,107.65,75,8.05,US,7,1658705231
Opotiki,-38.0833,177.2833,54.23,100,6.35,NZ,74,1658705232
Chardara,41.2547,67.9692,80.98,0,10.83,KZ,30,1658705232
Kysyl-Syr,63.8986,122.7617,66.0,21,5.37,RU,64,1658705232
Qobustan,40.0824,49.412,75.2,98,9.89,AZ,58,1658705233
Lalibela,12.0333,39.0333,59.36,83,2.8,ET,85,1658705233
Pitkyaranta,61.5734,31.4792,58.69,100,5.73,RU,97,1658705233
Kiryat Gat,31.61,34.7642,78.4,0,1.86,IL,100,1658705234
Ngorongoro,-3.2397,35.4875,45.28,10,5.48,TZ,88,1658705233
Palāsa,18.7667,84.4167,79.74,100,3.15,IN,83,1658705054
Trelew,-43.249,-65.3051,42.3,100,9.71,AR,74,1658705234
Wiarton,44.7407,-81.1332,75.65,75,11.5,CA,83,1658705234
Genhe,50.7833,121.5167,65.52,0,3.56,CN,79,1658705235
Tucupita,9.0622,-62.051,74.52,55,3.69,VE,96,1658705235
Broome,42.2506,-75.833,78.01,0,9.22,US,72,1658705235
Pozo Colorado,-23.4923,-58.7972,81.55,100,5.59,PY,31,1658705235
Médéa,36.2642,2.7539,75.76,0,1.7,DZ,45,1658705236
Dunnville,42.9001,-79.6163,85.08,62,26.22,CA,65,1658705236
